[
  {
    "nombre": "Cool Vintage Works",
    "pais": "Portugal",
    "pais_iso2": "PT",
    "ciudad": "Lisboa",
    "tipo": ["servicio", "espacio"],
    "descripcion": "Restauración premium de clásicos 4x4 con estilo minimalista.",
    "instagram": "@coolvintageworks",
    "web": "https://www.coolnvintage.com",
    "email": "info@coolnvintage.com",
    "logo": "coolvintage.svg",
    "coordenadas": { "lat": 38.7169, "lng": -9.1399 },
    "ubicacion": { "precision": "buffer", "point": { "lat": 38.7169, "lng": -9.1399 }, "buffer_km": 0 },
    "privacidad": { "mostrar": "buffer" },
    "vehiculos": ["land-rover-range-rover-classic"]
  },
  {
    "nombre": "The Landrovers",
    "pais": "Países Bajos",
    "pais_iso2": "NL",
    "ciudad": "Ámsterdam",
    "tipo": ["servicio"],
    "descripcion": "Restauración y diseño de Land Rover a medida.",
    "instagram": "@thelandrovers",
    "web": "https://www.the-landrovers.com",
    "email": "contact@the-landrovers.com",
    "logo": "thelandrovers.svg",
    "coordenadas": { "lat": 52.3702, "lng": 4.8952 },
    "ubicacion": { "precision": "point", "point": { "lat": 52.3702, "lng": 4.8952 }, "buffer_km": 0 },
    "privacidad": { "mostrar": "point" },
    "vehiculos": ["land-rover-range-rover-classic"]
  },
  {
    "nombre": "Staydog Classics",
    "pais": "Alemania",
    "pais_iso2": "DE",
    "ciudad": "Hamburgo",
    "tipo": ["servicio", "herramienta"],
    "descripcion": "Especialistas en Mercedes G y herramientas de restauración.",
    "instagram": "@staydogclassics",
    "web": "https://www.staydogclassics.com",
    "email": "info@staydogclassics.com",
    "logo": "staydog.svg",
    "coordenadas": { "lat": 53.5511, "lng": 9.9937 },
    "ubicacion": { "precision": "buffer", "point": { "lat": 53.5511, "lng": 9.9937 }, "buffer_km": 0 },
    "privacidad": { "mostrar": "buffer" },
    "vehiculos": ["mercedes-benz-claseg-w460"]
  },
  {
    "nombre": "RoverHaul",
    "pais": "Estados Unidos",
    "pais_iso2": "US",
    "ciudad": "Denver",
    "tipo": ["servicio", "conocimiento"],
    "descripcion": "Reparación y asesoramiento en Land Rover clásicos.",
    "instagram": "@roverhaul",
    "web": "https://www.roverhaul.com",
    "email": "hello@roverhaul.com",
    "logo": "roverhaul.svg",
    "coordenadas": { "lat": 39.7392, "lng": -104.9903 },
    "ubicacion": { "precision": "buffer", "point": { "lat": 39.7392, "lng": -104.9903 }, "buffer_km": 0 },
    "privacidad": { "mostrar": "buffer" },
    "vehiculos": ["land-rover-range-rover-classic"]
  },
  {
    "nombre": "Project88",
    "pais": "India",
    "pais_iso2": "IN",
    "ciudad": "Delhi",
    "tipo": ["servicio", "espacio", "herramienta"],
    "descripcion": "Transformaciones extremas de 4x4 y espacios de taller.",
    "instagram": "@project88",
    "web": "https://www.project88.co",
    "email": "contact@project88.co",
    "logo": "project88.svg",
    "coordenadas": { "lat": 28.6139, "lng": 77.209 },
    "ubicacion": { "precision": "buffer", "point": { "lat": 28.6139, "lng": 77.209 }, "buffer_km": 0 },
    "privacidad": { "mostrar": "buffer" },
    "vehiculos": []
  },
  {
    "nombre": "Ruidos Garage",
    "pais": "España",
    "pais_iso2": "ES",
    "ciudad": "Málaga",
    "tipo": ["servicio"],
    "descripcion": "Taller especializado en restauración y preparación de clásicos 4x4.",
    "instagram": "@ruidosgarage",
    "web": "https://www.ruidosgarage.es",
    "email": "info@ruidosgarage.es",
    "logo": "ruidosgarage.svg",
    "coordenadas": { "lat": 36.7213, "lng": -4.4214 },
    "ubicacion": { "precision": "buffer", "point": { "lat": 36.7213, "lng": -4.4214 }, "buffer_km": 0 },
    "privacidad": { "mostrar": "buffer" },
    "vehiculos": []
  },
  {
    "nombre": "Brand Lover Lynx",
    "pais": "España",
    "pais_iso2": "ES",
    "ciudad": "Madrid",
    "tipo": ["servicio", "diseño"],
    "descripcion": "Especialistas en Land Rover clásicos y personalización exclusiva.",
    "instagram": "@brandloverlynx",
    "web": "https://brandloverlynx.com",
    "email": "info@brandloverlynx.com",
    "logo": "brandloverlynx.svg",
    "coordenadas": { "lat": 40.4168, "lng": -3.7038 },
    "ubicacion": { "precision": "buffer", "point": { "lat": 40.4168, "lng": -3.7038 }, "buffer_km": 0 },
    "privacidad": { "mostrar": "buffer" },
    "vehiculos": ["land-rover-range-rover-classic", "land-rover-defender-serie3","land-rover-defender-serie1"]
  },
  {
    "nombre": "RRC Barcelona",
    "pais": "España",
    "pais_iso2": "ES",
    "ciudad": "Barcelona",
    "tipo": ["servicio", "espacio"],
    "descripcion": "Restauración de Range Rover Classic y otros Land Rover en Barcelona.",
    "instagram": "@rrcbarcelona",
    "web": "https://rrc-barcelona.com",
    "email": "contact@rrc-barcelona.com",
    "logo": "rrcbarcelona.svg",
    "coordenadas": { "lat": 41.3874, "lng": 2.1686 },
    "ubicacion": { "precision": "buffer", "point": { "lat": 41.3874, "lng": 2.1686 }, "buffer_km": 0 },
    "privacidad": { "mostrar": "buffer" },
    "vehiculos": ["land-rover-range-rover-classic"]
  }
]
